[
  { "name": "New York, NY, USA", "latitude": 40.7128, "longitude": -74.0060 },
  { "name": "York, UK", "latitude": 53.959965, "longitude": -1.087298 },
  { "name": "Yorktown, VA, USA", "latitude": 37.2388, "longitude": -76.5097 },
  { "name": "Little York, OH, USA", "latitude": 39.9964, "longitude": -84.6590 },
  { "name": "Yorkville, IL, USA", "latitude": 41.6372, "longitude": -88.4473 }
]
